City_ID,City,Lat,Lng,Max Temp,Humidity,Cloudiness,Wind Speed,Country,Date
0,adamstown,-25.066,-130.1015,23.5,76,100,6.14,PN,1704694236
1,grytviken,-54.2811,-36.5092,3.88,88,50,1.53,GS,1704694238
2,guarapari,-20.6667,-40.4975,24.94,88,47,2.27,BR,1704694239
3,ust-nera,64.5667,143.2,-43.84,98,81,1.55,RU,1704694239
4,puri,19.8,85.85,23.29,45,13,4.07,IN,1704694240
5,uturoa,-16.7333,-151.4333,27.0,79,64,3.7,PF,1704694241
6,waitangi,-43.9535,-176.5597,15.46,73,10,0.89,NZ,1704694241
7,bredasdorp,-34.5322,20.0403,18.27,66,96,3.46,ZA,1704694242
8,wailua homesteads,22.0669,-159.378,23.44,87,100,5.66,US,1704694243
9,klyuchi,52.2667,79.1667,1.52,99,100,8.72,RU,1704694243
10,aasiaat,68.7098,-52.8699,-10.64,83,100,5.13,GL,1704694244
11,lebu,-37.6167,-73.65,12.28,89,1,3.17,CL,1704694245
12,turpan,42.9333,89.1667,2.18,42,0,0.65,CN,1704694246
13,acapulco de juarez,16.8634,-99.8901,24.9,83,40,2.57,MX,1704694246
14,maun,-19.9833,23.4167,27.98,54,0,2.57,BW,1704694247
15,hermanus,-34.4187,19.2345,18.33,67,30,4.51,ZA,1704694248
16,panorama,40.5878,23.0315,9.95,75,99,5.36,GR,1704694248
17,yellowknife,62.456,-114.3525,-34.84,82,97,2.24,CA,1704694109
18,arraial do cabo,-22.9661,-42.0278,23.94,86,34,7.33,BR,1704694250
19,abepura,-2.6333,140.5833,31.45,62,20,0.51,ID,1704694250
20,onchan,54.1733,-4.4532,4.62,81,40,7.72,IM,1704694251
21,yamada,39.4667,141.95,2.18,42,10,5.53,JP,1704694252
22,west island,-12.1568,96.8225,28.99,79,75,6.17,CC,1704694252
23,saint-francois,46.4154,3.9054,-0.31,93,100,5.14,FR,1704694253
24,albany,42.6001,-73.9662,-1.29,82,49,1.34,US,1704694099
25,la passe,45.5549,-0.8967,4.13,80,100,4.22,FR,1704694254
26,bojnurd,37.4747,57.329,3.97,60,0,1.03,IR,1704694255
27,norilsk,69.3535,88.2027,-20.88,97,100,3.48,RU,1704694256
28,namdrik,5.5994,168.1028,28.08,79,91,9.15,MH,1704694256
29,ancud,-41.8697,-73.8203,9.58,84,8,2.38,CL,1704694257
30,isafjordur,66.0755,-23.124,4.77,97,100,5.22,IS,1704694258
31,punta arenas,-53.15,-70.9167,8.06,66,0,10.8,CL,1704694258
32,taunggyi,20.7833,97.0333,22.24,27,4,2.65,MM,1704694259
33,stephenville,32.2207,-98.2023,11.04,74,100,7.72,US,1704694260
34,talnakh,69.4865,88.3972,-21.0,98,100,5.02,RU,1704694260
35,puerto ayora,-0.7393,-90.3518,24.75,96,100,2.24,EC,1704694261
36,shenjiamen,29.9576,122.298,10.21,66,100,5.23,CN,1704694262
37,juan de herrera,18.874,-71.2383,19.2,84,4,1.06,DO,1704694262
38,brisas de zicatela,15.8369,-97.0419,24.76,76,2,2.1,MX,1704694263
39,thompson,55.7435,-97.8558,-32.95,100,16,1.49,CA,1704694264
40,severo-yeniseyskiy,60.3725,93.0408,-22.46,97,68,1.79,RU,1704694265
41,bethel,41.3712,-73.414,1.2,77,100,2.06,US,1704694188
42,port-aux-francais,-49.35,70.2167,8.14,93,73,16.61,TF,1704694266
43,stanley,54.868,-1.6985,2.65,96,75,0.51,GB,1704694267
44,posto fiscal rolim de moura,-13.0833,-62.2667,23.34,92,76,1.22,BR,1704694036
45,whitehorse,60.7161,-135.0538,-16.06,75,98,1.79,CA,1704694209
46,montereau-fault-yonne,48.3833,2.95,-0.29,76,100,6.26,FR,1704694269
47,baie-comeau,49.2168,-68.1489,-11.18,67,75,3.09,CA,1704694269
48,sinop,41.7711,34.8709,6.24,79,97,5.63,TR,1704694270
49,toliara,-23.35,43.6667,29.39,66,12,1.75,MG,1704694271
50,sikasso,10.9167,-7.0,22.41,21,51,2.43,ML,1704694272
51,presidente medici,-11.1753,-61.9014,22.79,94,84,1.41,BR,1704694272
52,hithadhoo,-0.6,73.0833,28.08,77,69,5.32,MV,1704694273
53,tiksi,71.6872,128.8694,-33.85,96,44,3.4,RU,1704694274
54,chonchi,-42.6128,-73.8092,7.84,91,26,0.9,CL,1704694274
55,igede-ekiti,7.6668,5.132,19.23,66,0,0.33,NG,1704694275
56,maloye ganyushkino,46.6,49.2667,-2.59,51,100,6.7,KZ,1704694276
57,koungou,-12.7336,45.2042,28.84,84,75,4.12,YT,1704694277
58,ribeira grande,38.5167,-28.7,15.99,69,87,4.92,PT,1704694278
59,allendale,42.9723,-85.9537,2.31,85,100,2.12,US,1704694280
60,markovo,57.3206,107.0881,-18.28,93,78,1.71,RU,1704694281
61,invercargill,-46.4,168.35,18.9,68,80,2.68,NZ,1704694282
62,bechar,31.6167,-2.2167,7.13,34,0,1.61,DZ,1704694136
63,malvan,16.0667,73.4667,30.93,41,14,1.71,IN,1704694283
64,sisimiut,66.9395,-53.6735,-9.56,82,100,4.93,GL,1704694284
65,cidreira,-30.1811,-50.2056,21.95,92,60,2.57,BR,1704694285
66,buala,-8.145,159.5921,27.7,84,96,1.57,SB,1704694285
67,kavaratti,10.5669,72.642,27.99,74,97,3.28,IN,1704694286
68,carnarvon,-24.8667,113.6333,26.3,68,2,7.17,AU,1704694287
69,mount pearl,47.5166,-52.7813,-5.48,85,44,2.24,CA,1704694287
70,port pirie,-33.1833,138.0167,23.29,58,10,7.31,AU,1704694288
71,karratha,-20.7377,116.8463,40.12,22,0,7.37,AU,1704694289
72,blackmans bay,-43.0167,147.3167,16.52,76,100,1.34,AU,1704694290
73,bilibino,68.0546,166.4372,-29.45,98,100,1.08,RU,1704694290
74,berlin,52.5244,13.4105,-6.49,72,0,6.26,DE,1704693608
75,boulder,40.0833,-105.3505,-5.27,64,100,0.45,US,1704694292
76,pasni,25.2631,63.471,22.96,33,3,9.64,PK,1704694293
77,atafu village,-8.5421,-172.5159,28.7,72,99,1.51,TK,1704694294
78,ilulissat,69.2167,-51.1,-7.99,73,100,8.75,GL,1704694295
79,howrah,22.5892,88.3103,21.0,73,2,3.09,IN,1704694296
80,port alfred,-33.5906,26.891,18.43,97,100,0.89,ZA,1704694297
81,constantia,44.1833,28.65,0.39,81,100,8.55,RO,1704694297
82,westport,41.1415,-73.3579,2.27,82,0,2.06,US,1704694298
83,usakos,-22.0,15.6,24.67,28,73,2.35,NA,1704694300
84,avarua,-21.2078,-159.775,26.03,89,100,4.63,CK,1704694167
85,boguchany,58.3814,97.4531,-18.97,96,95,1.34,RU,1704694301
86,yigou,35.8114,114.3167,7.32,38,35,5.51,CN,1704694302
87,fort smith,35.3859,-94.3986,6.18,70,0,3.09,US,1704694204
88,kodiak,57.79,-152.4072,0.73,75,0,3.09,US,1704694303
89,laguna,38.421,-121.4238,7.28,80,0,2.57,US,1704694304
90,iskateley,67.6803,53.1512,-11.96,95,85,2.23,RU,1704694305
91,sendafa,9.15,39.0333,13.76,60,26,2.09,ET,1704694305
92,likhoslavl',57.1275,35.464,-20.64,90,32,2.49,RU,1704694306
93,tindouf,27.6711,-8.1474,8.25,46,0,2.06,DZ,1704694307
94,pisco,-13.7,-76.2167,21.03,88,100,4.63,PE,1704694308
95,kapa'a,22.0752,-159.319,24.18,84,100,5.66,US,1704694308
96,palmer,42.1584,-72.3287,-1.99,83,100,0.0,US,1704694152
97,tura,25.5198,90.2201,22.9,41,0,2.53,IN,1704694310
98,longyearbyen,78.2186,15.6401,-14.09,66,75,4.63,SJ,1704694311
99,zouerate,22.7187,-12.4521,16.11,47,1,3.11,MR,1704694312
100,alofi,-19.0595,-169.9187,27.18,81,48,3.38,NU,1704694312
101,padre bernardo,-15.35,-48.5,20.73,98,100,0.28,BR,1704694036
102,fayroz koh,34.5195,65.2509,-2.06,81,52,1.49,AF,1704694314
103,reyes,-14.3167,-67.3833,23.53,96,50,0.83,BO,1704694314
104,urzhar,47.093,81.6294,-1.38,98,100,2.11,KZ,1704694315
105,les cayes,18.2,-73.75,23.67,82,6,1.91,HT,1704694316
106,nar'yan-mar,67.6713,53.087,-11.71,95,85,2.28,RU,1704694316
107,akom ii,2.7833,10.5667,22.98,87,88,0.05,CM,1704694317
108,cascais,38.6979,-9.4215,9.73,83,98,3.13,PT,1704694318
109,iqaluit,63.7506,-68.5145,-19.15,71,100,2.06,CA,1704694318
110,tazacorte,28.629,-17.9293,17.86,90,100,2.57,ES,1704694320
111,chu,43.5983,73.7614,5.77,91,100,1.51,KZ,1704694320
112,luderitz,-26.6481,15.1594,18.32,71,55,10.67,NA,1704694321
113,georgetown,5.4112,100.3354,32.96,58,20,1.54,MY,1704694139
114,fort beaufort,-32.7748,26.6338,17.66,86,98,0.75,ZA,1704694322
115,mount isa,-20.7333,139.5,31.87,51,100,6.17,AU,1704694323
116,ochakiv,46.6128,31.5498,3.76,88,100,11.46,UA,1704694324
117,greenville,35.6127,-77.3663,6.18,66,0,0.0,US,1704694108
118,xiva,41.3783,60.3639,2.99,57,21,6.02,UZ,1704694325
119,castanos,26.7833,-101.4167,12.41,70,0,3.3,MX,1704694326
120,kirensk,57.7853,108.1119,-20.58,96,84,1.79,RU,1704694327
121,mandasa,18.8667,84.4667,28.27,37,47,4.76,IN,1704694328
122,inverurie,57.2845,-2.3774,0.36,100,12,1.03,GB,1704694328
123,vila franca do campo,37.7167,-25.4333,14.23,88,47,2.77,PT,1704694329
124,puquio,-14.7,-74.1333,13.67,73,100,1.42,PE,1704694330
125,ushuaia,-54.8,-68.3,2.7,97,97,2.98,AR,1704694331
126,jinghong,21.991,100.7341,27.7,29,7,1.3,CN,1704694331
127,port elizabeth,-33.918,25.5701,18.39,95,100,5.66,ZA,1704694332
128,harper,4.375,-7.7169,26.67,85,13,2.69,LR,1704694333
129,brownfield,33.1812,-102.2744,9.97,78,84,11.56,US,1704694333
130,campos belos,-13.0367,-46.7717,21.28,96,100,0.96,BR,1704694085
131,edinburgh of the seven seas,-37.0676,-12.3116,16.99,80,100,6.45,SH,1704694335
132,port mathurin,-19.6833,63.4167,27.63,69,43,2.97,MU,1704694336
133,guerrero negro,27.9769,-114.0611,14.56,48,38,8.1,MX,1704694337
134,afaahiti,-17.75,-149.2833,24.93,85,53,5.48,PF,1704694338
135,cabo san lucas,22.8909,-109.9124,19.31,63,20,0.45,MX,1704694161
136,jamestown,42.097,-79.2353,1.42,99,100,5.66,US,1704694075
137,la ronge,55.1001,-105.2842,-30.86,69,40,0.0,CA,1704694340
138,port-vila,-17.7338,168.3219,28.78,84,75,2.57,VU,1704694341
139,papatowai,-46.5619,169.4708,16.62,65,97,2.28,NZ,1704694342
140,akureyri,65.6835,-18.0878,7.96,66,20,6.69,IS,1704694342
141,dubbo,-32.25,148.6167,20.07,94,100,2.57,AU,1704694343
142,khanty-mansiysk,61.0042,69.0019,-21.94,71,75,2.0,RU,1704694344
143,olonkinbyen,70.9221,-8.7187,1.94,88,100,9.94,SJ,1704694345
144,saint-joseph,-21.3667,55.6167,28.21,73,43,4.2,RE,1704694345
145,yakymivka,46.6897,35.1536,1.15,84,100,7.1,UA,1704694346
146,altamont,42.2068,-121.7372,-3.67,88,0,0.0,US,1704694347
147,yuzhno-kurilsk,44.0306,145.8556,-1.46,79,60,7.76,RU,1704694348
148,margaret river,-33.95,115.0667,23.63,62,96,7.36,AU,1704694349
149,ammon,43.4696,-111.9666,-10.66,88,20,0.0,US,1704694350
150,beshariq,40.4358,70.6103,8.67,59,97,0.97,UZ,1704694351
151,keflavik,64.0049,-22.5624,8.95,100,100,12.35,IS,1704694351
152,anadyr,64.75,177.4833,-14.72,84,100,7.0,RU,1704694352
153,naze,28.3667,129.4833,13.53,60,87,2.48,JP,1704694353
154,arkhangel'sk,64.5401,40.5433,-11.04,88,100,4.0,RU,1704694354
155,dalai,45.5,124.3,-10.99,81,98,4.06,CN,1704694354
156,waingapu,-9.6567,120.2641,30.35,70,91,3.89,ID,1704694355
157,revda,56.801,59.9303,-24.52,93,100,6.49,RU,1704694356
158,safotu,-13.4513,-172.4018,28.88,80,93,2.38,WS,1704694356
159,tazovsky,67.4667,78.7,-22.26,95,99,4.1,RU,1704694357
160,kalix,65.853,23.1565,-6.34,84,96,2.93,SE,1704694358
161,singkil,-7.9855,111.4161,27.46,79,100,0.31,ID,1704694358
162,riachao,-7.3619,-46.6172,22.33,95,100,0.63,BR,1704694359
163,nikolayevsk-on-amure,53.1406,140.73,-18.96,91,100,1.69,RU,1704694360
164,dudinka,69.4058,86.1778,-20.77,98,100,8.05,RU,1704694360
165,paris,48.8534,2.3488,-0.13,71,100,7.72,FR,1704693908
166,santa cruz,-17.8,-63.1667,23.7,100,68,5.14,BO,1704694362
167,horta,38.5333,-28.6333,15.57,69,86,4.92,PT,1704694362
168,kapuskasing,49.4169,-82.4331,-16.95,84,20,4.63,CA,1704694363
169,pucallpa,-8.3791,-74.5539,25.02,94,20,1.54,PE,1704694364
170,hawaiian paradise park,19.5933,-154.9731,21.73,96,100,0.0,US,1704694364
171,vernon,50.2581,-119.2691,-6.83,90,94,0.65,CA,1704694058
172,reggane,26.7158,0.1714,14.42,31,74,3.08,DZ,1704694366
173,charters towers,-20.1,146.2667,32.03,48,95,4.34,AU,1704694366
174,quelimane,-17.8786,36.8883,27.97,83,75,1.54,MZ,1704694367
175,senges,-24.1128,-49.4636,20.96,79,0,0.84,BR,1704694368
176,codrington,-38.2667,141.9667,16.71,82,98,7.36,AU,1704694368
177,san patricio,28.017,-97.5169,20.47,74,36,10.6,US,1704694369
178,moree,-29.4667,149.85,27.22,58,100,5.99,AU,1704694370
179,puerto natales,-51.7236,-72.4875,4.41,87,67,4.38,CL,1704694370
180,kerikeri,-35.2268,173.9474,19.83,69,0,3.34,NZ,1704694207
181,bubaque,11.2833,-15.8333,26.01,48,22,5.77,GW,1704694372
182,nefteyugansk,61.0998,72.6035,-13.26,96,100,3.11,RU,1704694373
183,rongelap,11.1635,166.8941,27.12,77,63,9.4,MH,1704694374
184,san antonio de pale,-1.4014,5.6325,27.7,76,36,5.49,GQ,1704694374
185,graaff-reinet,-32.2522,24.5308,16.07,90,96,2.51,ZA,1704694375
186,betio village,1.358,172.9211,30.02,78,99,7.13,KI,1704694376
187,mahibadhoo,3.7833,72.9667,27.74,73,89,3.32,MV,1704694377
188,vetovo,43.7,26.2667,0.75,78,100,6.38,BG,1704694377
189,petropavlovsk-kamchatsky,53.0452,158.6483,-15.68,82,20,4.47,RU,1704694378
190,rio grande,-32.035,-52.0986,22.19,91,81,3.06,BR,1704694379
191,oasis,33.4659,-116.0989,11.94,36,0,3.09,US,1704694379
192,port shepstone,-30.7414,30.455,22.28,86,100,4.24,ZA,1704694380
193,nanao,37.05,136.9667,3.11,69,98,4.07,JP,1704694381
194,san luis,-33.295,-66.3356,20.77,80,5,3.21,AR,1704694382
195,robstown,27.7903,-97.6689,20.42,80,100,12.35,US,1704694384
196,vorgashor,67.5833,63.95,-24.23,100,98,2.51,RU,1704694384
197,nishinoomote,30.7333,131.0,10.31,61,20,6.17,JP,1704694385
198,phan rang-thap cham,11.5667,108.9833,29.07,56,98,6.15,VN,1704694386
199,puerto san jose,13.9256,-90.8244,23.28,85,21,1.99,GT,1704694160
200,saint-philippe,-21.3585,55.7679,28.77,77,61,3.88,RE,1704694387
201,noyabrsk,63.1994,75.4507,-19.31,98,100,5.81,RU,1704694388
202,matadi,-5.8167,13.45,24.01,91,97,0.81,CD,1704694389
203,haiku-pauwela,20.9219,-156.3051,23.47,80,40,5.14,US,1704694390
204,rawlins,41.7911,-107.2387,-5.06,63,100,5.66,US,1704694390
205,asuncion nochixtlan,17.4667,-97.2333,10.56,94,27,0.3,MX,1704694391
206,ilhabela,-23.7781,-45.3581,23.41,90,12,2.56,BR,1704694392
207,bairnsdale,-37.8333,147.6167,19.47,96,100,2.68,AU,1704694392
208,qaqortoq,60.7167,-46.0333,0.58,78,99,3.71,GL,1704694393
209,pontiac,42.6389,-83.2911,1.75,89,100,3.09,US,1704694394
210,ilebo,-4.3167,20.5833,22.91,91,93,0.18,CD,1704694396
211,tual,-5.6667,132.75,29.08,72,70,5.04,ID,1704694396
212,enewetak,11.3474,162.3373,27.19,72,30,9.52,MH,1704694398
213,morant bay,17.8815,-76.4093,25.79,84,9,4.5,JM,1704694398
214,friedland,51.4167,9.9333,-4.36,69,98,2.68,DE,1704694399
215,adam,22.3756,57.5233,22.67,45,1,3.7,OM,1704694400
216,castillos,-34.1667,-53.8333,19.37,97,100,2.2,UY,1704694400
217,san luis de la loma,17.2706,-100.8939,23.89,79,100,2.03,MX,1704694401
218,nova sintra,14.8667,-24.7167,21.66,66,94,6.53,CV,1704694402
219,nchelenge,-9.3451,28.734,20.45,93,100,0.54,ZM,1704694402
220,korla,41.7597,86.1469,-0.86,53,2,0.23,CN,1704694403
221,mazatlan,23.2167,-106.4167,20.51,80,75,0.45,MX,1704694404
222,banda aceh,5.5577,95.3222,29.7,72,34,6.52,ID,1704694404
223,gebeit,21.0667,36.3167,20.82,62,0,4.05,SD,1704694405
224,saint-louis,16.3333,-15.0,20.29,14,0,3.15,SN,1704694406
225,st. john's,47.5649,-52.7093,-5.02,85,75,7.72,CA,1704694346
226,recani,31.2846,-4.2688,7.59,49,0,0.88,MA,1704694407
227,aginskoye,51.1,114.53,-11.64,76,7,7.83,RU,1704694311
228,aykhal,66.0,111.5,-31.43,100,96,2.86,RU,1704694408
229,college,64.8569,-147.8028,-8.85,82,100,0.0,US,1704694293
230,novhorod-sivers'kyy,52.0058,33.2615,-16.45,89,100,5.91,UA,1704694410
231,abuyog,10.6667,125.05,27.93,81,88,4.48,PH,1704694410
232,suizhou,31.7111,113.3631,11.69,55,47,1.76,CN,1704694411
233,tolanaro,-25.0319,46.9987,27.12,79,44,6.53,MG,1704694412
234,timbuktu,16.7735,-3.0074,19.98,15,58,4.6,ML,1704694412
235,bridgewater,44.3835,-64.5155,-4.18,93,100,5.66,CA,1704694413
236,puerto aysen,-45.4,-72.7,6.77,99,82,1.96,CL,1704694414
237,utrik,11.2278,169.8474,27.0,68,33,8.45,MH,1704694415
238,kalmunai,7.4167,81.8167,27.68,80,97,3.78,LK,1704694163
239,fale old settlement,-9.3852,-171.2468,29.02,65,53,1.5,TK,1704694416
240,chagoda,59.164,35.3285,-15.22,83,22,4.34,RU,1704694418
241,tsiombe,-25.3,45.4833,29.85,63,10,3.38,MG,1704694418
242,azadshahr,34.7909,48.5707,8.16,17,14,2.46,IR,1704694159
243,sinjar,36.3209,41.8754,10.06,48,100,2.49,IQ,1704694420
244,nemuro,43.3236,145.575,-0.83,69,55,7.49,JP,1704694420
245,belmonte,-15.8631,-38.8828,25.12,90,99,2.19,BR,1704694421
246,villamontes,-21.25,-63.5,23.79,80,61,1.66,BO,1704694422
247,kralendijk,12.15,-68.2667,26.99,78,79,8.23,BQ,1704694227
248,kalisz,51.7611,18.091,-8.79,69,95,5.86,PL,1704694423
249,cukai,4.25,103.4167,29.97,87,96,4.69,MY,1704694424
250,sarandi del yi,-33.35,-55.6333,18.85,95,57,2.58,UY,1704694424
251,dieppe,49.75,1.1667,-1.9,82,5,0.89,FR,1704694318
252,sirte,31.2089,16.5887,11.87,49,81,7.03,LY,1704694427
253,manokwari,-0.8667,134.0833,28.58,72,79,3.0,ID,1704694428
254,kasungu,-13.0333,33.4833,19.78,95,100,1.29,MW,1704694428
255,vizinga,61.0749,50.1031,-18.62,98,98,2.66,RU,1704694429
256,manismata,-2.4667,111.0333,29.39,77,98,2.1,ID,1704694430
257,kisangani,0.5167,25.2,24.52,67,42,0.37,CD,1704694246
258,batangafo,7.3008,18.2833,20.65,21,91,1.17,CF,1704694431
259,plouzane,48.3833,-4.6167,4.03,90,100,2.57,FR,1704694432
260,aripuana,-9.1667,-60.6333,22.6,98,100,0.26,BR,1704694194
261,vilyuysk,63.7553,121.6247,-32.78,97,100,1.79,RU,1704694433
262,queenstown,-31.8976,26.8753,17.27,71,95,2.34,ZA,1704694434
263,hamilton,39.1834,-84.5333,2.16,88,100,2.06,US,1704694325
264,jumla,29.2747,82.1838,12.47,10,0,2.92,NP,1704694435
265,sitka,57.0531,-135.33,4.94,60,100,7.2,US,1704694286
266,brigantine,39.4101,-74.3646,3.91,84,0,26.38,US,1704694172
267,luanda,-8.8368,13.2343,24.16,79,72,3.04,AO,1704694159
268,guiberoua,6.2392,-6.1727,21.64,99,25,0.94,CI,1704694438
269,katoomba,-33.7198,150.3074,19.48,80,91,3.4,AU,1704694438
270,howard springs,-12.497,131.047,34.99,73,99,3.22,AU,1704694439
271,antsiranana,-12.2787,49.2917,29.3,71,99,1.82,MG,1704694440
272,kone,-21.0595,164.8658,28.05,70,94,2.07,NC,1704694440
273,odda,60.0691,6.5457,-4.02,70,2,2.13,NO,1704694441
274,saipan,15.1355,145.701,29.39,74,20,5.66,MP,1704694442
275,nogliki,51.8333,143.1667,-17.03,82,97,4.02,RU,1704694442
276,lompoc,34.6391,-120.4579,7.74,65,0,2.57,US,1704694443
277,guatrache,-37.6678,-63.5302,17.0,83,2,3.24,AR,1704694444
278,kourou,5.1552,-52.6478,26.03,90,30,3.29,GF,1704694444
279,beidaihehaibin,39.8222,119.5181,0.37,50,87,5.72,CN,1704694445
280,la'ie,21.6477,-157.9253,24.98,84,48,0.89,US,1704694446
281,nuuk,64.1835,-51.7216,-5.66,93,100,9.77,GL,1704694447
282,weno,7.4515,151.8468,29.97,66,40,4.12,FM,1704694447
283,tobelo,1.7284,128.0095,29.49,61,48,2.81,ID,1704694448
284,lardero,42.4269,-2.4615,2.4,87,75,4.12,ES,1704694449
285,dolneni,41.4253,21.4547,5.11,94,100,0.81,MK,1704694449
286,vorkuta,67.5,64.0,-23.5,100,98,2.86,RU,1704694450
287,heihe,50.2441,127.4902,-16.97,82,100,3.2,CN,1704694451
288,nadym,65.5333,72.5167,-18.69,97,100,4.03,RU,1704694452
289,east london,-33.0153,27.9116,19.52,94,20,4.12,ZA,1704694452
290,argo,37.6333,22.7333,8.21,76,23,2.51,GR,1704694453
291,xincheng,33.6333,115.1833,6.86,60,83,3.85,CN,1704694454
292,ponta delgada,37.7333,-25.6667,14.4,82,20,1.54,PT,1704694455
293,dayr hafir,36.1569,37.7078,9.74,66,85,3.12,SY,1704694455
294,lib,8.3122,167.3766,27.22,70,56,9.45,MH,1704694457
295,videira,-27.0083,-51.1517,19.23,82,49,1.11,BR,1704694457
296,crane,31.3974,-102.3501,11.8,74,32,16.8,US,1704694458
297,ulaangom,49.9811,92.0667,-20.02,96,99,1.22,MN,1704694459
298,cape coast,5.1053,-1.2466,26.96,85,20,2.06,GH,1704694459
299,axim,4.8699,-2.2405,26.36,87,19,2.48,GH,1704694460
300,san lawrenz,36.0553,14.204,11.67,61,35,13.17,MT,1704694461
301,corning,42.1428,-77.0547,0.09,85,100,2.06,US,1704694461
302,sinabang,2.4803,96.3801,29.88,68,53,1.3,ID,1704694462
303,chongwe,-15.3292,28.682,22.82,75,67,1.82,ZM,1704694463
304,wenchang,30.904,118.4887,7.06,61,100,0.6,CN,1704694463
305,laascaanood,8.4774,47.3597,22.15,36,16,8.03,SO,1704694464
306,zernograd,46.8452,40.3083,-1.6,85,97,7.99,RU,1704694465
307,bahia blanca,-38.7196,-62.2724,19.78,69,17,5.48,AR,1704694466
308,halfaya,35.2599,36.6057,11.24,75,47,0.95,SY,1704694466
309,port lincoln,-34.7333,135.8667,19.11,66,30,5.95,AU,1704694467
310,mil'kovo,55.6078,37.7956,-20.53,96,8,2.07,RU,1704694468
311,coro,11.4045,-69.6734,25.34,86,98,6.34,VE,1704694468
312,lima,-12.0432,-77.0282,23.28,78,75,5.14,PE,1704694230
313,thinadhoo,0.5333,72.9333,28.27,74,55,4.84,MV,1704694470
314,darwin,-12.4611,130.8418,35.03,67,75,5.66,AU,1704694471
315,phalodi,27.1333,72.3667,18.21,22,0,2.57,IN,1704694472
316,gualaceo,-2.9,-78.7833,14.53,96,100,1.29,EC,1704694472
317,black point,-34.6187,137.8972,20.33,70,42,8.69,AU,1704694473
318,busayra,30.7376,35.6078,12.83,41,14,1.0,JO,1704694474
319,muisne,0.6,-80.0333,24.81,91,99,4.84,EC,1704694475
320,mata-utu,-13.2816,-176.1745,28.52,74,100,0.86,WF,1704694475
321,joroinen,62.1782,27.8317,-7.23,91,100,4.51,FI,1704694477
322,dhidhdhoo,6.8833,73.1,27.95,75,86,2.24,MV,1704694478
323,saham,24.1722,56.8886,23.87,40,15,7.16,OM,1704694478
324,pimentel,-6.8367,-79.9342,22.16,83,0,3.09,PE,1704694479
325,kasempa,-13.4584,25.8338,20.4,91,94,3.06,ZM,1704694480
326,lakatoro,-16.0999,167.4164,28.72,76,75,2.1,VU,1704694480
327,jayapura,-2.5333,140.7,31.66,69,100,3.89,ID,1704694481
328,bowen,-20.0167,148.2333,29.13,72,100,6.82,AU,1704694482
329,holualoa,19.6228,-155.9522,22.91,84,0,3.6,US,1704694482
330,nago,26.5881,127.9761,22.47,52,74,2.39,JP,1704694483
331,los osos,35.3111,-120.8324,8.52,70,0,2.24,US,1704694484
332,badger,64.8,-147.5333,-8.9,84,75,0.0,US,1704694484
333,mandalgovi,45.7625,106.2708,-11.07,72,88,4.52,MN,1704694485
334,yakutsk,62.0339,129.7331,-46.69,63,100,1.0,RU,1704694486
335,kingston,17.997,-76.7936,25.53,83,20,3.09,JM,1704694486
336,fairfax,38.8501,-77.3497,4.9,65,75,4.12,US,1704694227
337,cabedelo,-6.9811,-34.8339,24.37,80,0,3.58,BR,1704694488
338,barah,13.7,30.3667,19.89,27,13,4.57,SD,1704694227
339,chegdomyn,51.1167,133.0167,-23.75,87,87,0.79,RU,1704694489
340,guanica,17.9716,-66.908,22.89,1,2,2.07,PR,1704694490
341,beau vallon,-20.4189,57.6953,30.12,70,40,4.63,MU,1704694490
342,hirado,33.3597,129.5531,5.82,47,37,2.18,JP,1704694491
343,tucurui,-3.7661,-49.6725,23.17,98,100,1.51,BR,1704694492
344,ebon,4.582,168.6964,28.41,80,97,8.36,MH,1704694492
345,alice springs,-23.7,133.8833,33.45,38,21,3.13,AU,1704694493
346,inderbor,48.55,51.7833,-10.31,62,100,5.7,KZ,1704694494
347,carutapera,-1.195,-46.02,24.82,91,100,2.45,BR,1704694494
348,buon ma thuot,12.6667,108.05,29.91,45,92,3.1,VN,1704694495
349,kamina,-8.7386,24.9906,18.61,98,100,0.83,CD,1704694496
350,kachug,53.9606,105.8817,-14.42,91,80,0.89,RU,1704694496
351,tamandare,-8.7597,-35.1047,24.84,86,10,2.8,BR,1704694497
352,prado,-17.3411,-39.2208,24.28,92,99,1.47,BR,1704694498
353,fortuna,40.5982,-124.1573,5.92,95,100,0.0,US,1704694498
354,kapit,2.0167,112.9333,30.9,71,100,0.17,MY,1704694499
355,el calafate,-50.3408,-72.2768,6.58,62,96,5.2,AR,1704694500
356,kansk,56.2017,95.7175,-13.35,91,85,1.43,RU,1704694428
357,glace bay,46.1969,-59.957,-2.23,82,75,10.29,CA,1704694501
358,polyarnyy,69.1989,33.4478,-4.57,79,100,9.38,RU,1704694502
359,geraldton,-28.7667,114.6,29.23,54,0,8.75,AU,1704694503
360,miri,4.4148,114.0089,31.08,74,40,2.57,MY,1704694504
361,namibe,-15.1961,12.1522,23.24,79,93,3.75,AO,1704694504
362,baukau,51.5526,7.2042,-1.4,77,85,2.68,DE,1704694505
363,tombodu,8.1333,-10.6167,19.9,92,13,0.84,SL,1704694506
364,coquimbo,-29.9533,-71.3436,16.85,94,0,1.54,CL,1704694507
365,chibougamau,49.9168,-74.3659,-14.21,85,100,1.03,CA,1704694507
366,aral,40.5156,81.2636,2.17,29,38,0.44,CN,1704694508
367,amos,48.5669,-78.1162,-12.02,98,95,1.37,CA,1704694369
368,nasir,15.5894,32.5634,23.27,35,5,4.76,SD,1704694509
369,katabu,-4.9333,122.5167,29.44,76,99,1.94,ID,1704694510
370,champerico,14.3,-91.9167,24.91,81,22,1.81,GT,1704694511
371,praia da vitoria,38.7333,-27.0667,14.86,88,40,3.37,PT,1704694512
372,dinguiraye,11.3,-10.7167,20.85,20,87,1.45,GN,1704694512
373,ebolowa,2.9,11.15,21.93,85,90,0.47,CM,1704694513
374,asau,46.4333,26.4,-7.49,93,100,3.46,RO,1704694514
375,nova prata,-28.7839,-51.61,20.88,98,79,1.32,BR,1704694439
376,trincomalee,8.5711,81.2335,27.02,84,68,4.64,LK,1704694515
377,ulladulla,-35.35,150.4667,23.06,87,100,3.96,AU,1704694516
378,malpica,43.3228,-8.8105,6.32,92,97,3.17,ES,1704694517
379,luganville,-15.5333,167.1667,28.05,80,86,0.44,VU,1704694518
380,grantsville,40.5999,-112.4644,-3.01,84,100,2.06,US,1704694519
381,pandan,14.0453,124.1694,26.39,88,85,7.14,PH,1704694520
382,boa vista,2.8197,-60.6733,25.99,65,0,5.66,BR,1704694520
383,machico,32.7,-16.7667,21.51,87,40,0.51,PT,1704694521
384,pangoa,-12.1167,-73.0,20.59,98,78,1.12,PE,1704694522
385,sao desiderio,-12.3633,-44.9733,21.93,98,100,1.19,BR,1704694523
386,huarmey,-10.0681,-78.1522,22.22,84,100,2.79,PE,1704694524
387,eilat,29.5581,34.9482,13.91,58,4,2.06,IL,1704694525
388,kota kinabalu,5.9749,116.0724,31.99,74,20,1.54,MY,1704694328
389,tchibanga,-2.85,11.0333,22.04,98,100,1.12,GA,1704694526
390,ode,7.7899,5.7117,20.85,32,0,0.54,NG,1704694527
391,barra,-11.0894,-43.1417,23.92,85,96,1.16,BR,1704694527
392,al khums,32.6486,14.2619,11.56,54,62,8.0,LY,1704694528
393,navapolatsk,55.5363,28.6424,-19.35,97,7,0.99,BY,1704694529
394,gamba,-2.65,10.0,25.56,83,100,2.64,GA,1704694530
395,yibin,28.7667,104.6238,16.76,56,71,2.15,CN,1704694531
396,macapa,0.0389,-51.0664,24.77,93,100,3.23,BR,1704694532
397,olyokminsk,60.3736,120.4264,-21.88,86,100,5.14,RU,1704694533
398,taitung city,22.7583,121.1444,24.15,57,75,5.14,TW,1704694534
399,minas de marcona,-15.2119,-75.1103,17.64,79,100,3.82,PE,1704694535
400,lihue,21.9789,-159.3672,23.77,85,100,5.66,US,1704694293
401,hadibu,12.65,54.0333,24.68,53,35,7.69,YE,1704694536
402,basco,20.4487,121.9702,24.08,71,78,9.9,PH,1704694537
403,ribas do rio pardo,-20.4431,-53.7592,24.6,69,55,2.12,BR,1704694538
404,patnanungan,14.7833,122.1833,26.16,85,59,8.15,PH,1704694538
405,rikaze,29.25,88.8833,2.91,12,0,0.97,CN,1704694539
406,okhotsk,59.3833,143.3,-30.15,83,28,4.33,RU,1704694540
407,el bolson,-41.9667,-71.5167,8.77,98,57,2.49,AR,1704694540
408,itoman,26.1247,127.6694,22.43,51,20,3.09,JP,1704694541
409,udachny,66.4167,112.4,-26.42,75,98,3.28,RU,1704694542
410,san andres,12.5847,-81.7006,28.01,78,20,6.69,CO,1704694543
411,nabire,-3.3667,135.4833,29.52,69,91,1.47,ID,1704694544
412,kununurra,-15.7667,128.7333,35.99,46,95,2.06,AU,1704694279
413,richards bay,-28.783,32.0377,23.05,94,100,3.15,ZA,1704694545
414,kribi,2.95,9.9167,26.97,82,36,2.29,CM,1704694546
415,nyurba,63.2842,118.3319,-26.55,96,100,3.2,RU,1704694546
416,shingu,33.7333,135.9833,8.77,43,14,0.66,JP,1704694547
417,sao raimundo nonato,-9.0153,-42.6994,22.58,89,95,1.72,BR,1704694548
418,puerto baquerizo moreno,-0.9,-89.6,24.32,87,100,4.17,EC,1704694548
419,miyaly,48.8844,53.7836,-11.11,74,89,4.64,KZ,1704694549
420,nyagan,62.1406,65.3936,-17.5,96,100,3.87,RU,1704694550
421,la cabima,9.1333,-79.5333,25.29,85,0,2.57,PA,1704694550
422,newman,37.3138,-121.0208,7.13,68,0,1.34,US,1704694551
423,mingguang,32.7802,117.9638,6.41,55,98,3.83,CN,1704694549
424,kamyzyak,46.11,48.0736,-5.01,68,0,5.0,RU,1704694552
425,el granada,37.5027,-122.4694,10.19,75,20,2.06,US,1704694553
426,puerto lempira,15.2667,-83.7667,24.32,90,35,3.21,HN,1704694554
427,almazan,41.4865,-2.5309,-0.68,97,15,3.13,ES,1704694554
428,prainha,-1.8,-53.48,22.59,98,54,1.45,BR,1704694556
429,cannonvale,-20.2833,148.7,28.66,69,99,5.4,AU,1704694556
430,anar darah,32.7587,61.654,8.14,36,0,3.3,AF,1704694557
431,natal,-5.795,-35.2094,25.12,88,40,0.51,BR,1704694558
432,kushiro,42.975,144.3747,-0.47,59,20,1.54,JP,1704694558
433,labrador city,52.9463,-66.9114,-35.05,68,0,2.06,CA,1704694513
434,kavieng,-2.5744,150.7967,29.54,74,98,4.4,PG,1704694560
435,ust'-ilimsk,58.0006,102.6619,-19.76,95,95,2.27,RU,1704694342
436,barcelos,41.5388,-8.6151,6.08,74,96,1.99,PT,1704694561
437,altamira,-3.2033,-52.2064,22.34,100,100,0.86,BR,1704694562
438,tadmur,34.5608,38.2805,12.63,66,82,0.22,SY,1704694562
439,portland,45.5234,-122.6762,6.01,94,100,2.06,US,1704693932
440,key west,24.5557,-81.7826,21.0,68,40,5.66,US,1704694325
441,larkird,35.4894,66.6641,3.69,83,98,1.64,AF,1704694278
442,princeville,45.7668,-61.2985,-2.27,77,75,3.09,CA,1704694566
443,fort bragg,35.139,-79.006,5.75,64,0,1.54,US,1704694566
444,pariaman,-0.619,100.12,31.03,75,100,1.62,ID,1704694567
445,borjomi,41.8527,43.4128,5.4,55,100,2.94,GE,1704694568
446,palopo,-2.9996,120.1921,29.49,75,95,1.46,ID,1704694569
447,sar-e pul,35.8333,66.1667,3.59,69,74,0.45,AF,1704694569
448,komarichi,52.4151,34.7905,-18.34,92,100,5.01,RU,1704694570
449,yaren,-0.5472,166.916,29.33,70,73,1.51,NR,1704694571
450,lautoka,-17.6167,177.4667,25.92,83,75,3.09,FJ,1704694571
451,port isabel,26.0734,-97.2086,21.71,77,73,9.77,US,1704694572
452,piacabucu,-10.4056,-36.4344,23.83,88,2,3.01,BR,1704694573
453,thohoyandou,-22.9456,30.485,23.28,64,13,2.01,ZA,1704694574
454,dwarka,22.2394,68.9678,22.96,44,0,7.61,IN,1704694575
455,vilyuchinsk,52.9306,158.4028,-14.85,85,27,3.01,RU,1704694576
456,jiangyan,32.5061,120.1428,6.32,55,100,3.04,CN,1704694539
457,cadale,2.7603,46.3222,26.66,65,77,10.86,SO,1704694577
458,totness,5.8833,-56.3167,25.14,80,23,4.63,SR,1704694578
459,ocean acres,39.7435,-74.281,2.66,88,7,3.9,US,1704694578
460,misratah,32.3754,15.0925,11.38,55,48,6.7,LY,1704694579
461,los frentones,-26.4077,-61.4137,31.68,37,2,4.03,AR,1704694287
462,coari,-4.085,-63.1414,24.27,90,63,1.22,BR,1704694581
463,salekhard,66.53,66.6019,-25.49,100,96,0.53,RU,1704694581
464,fort mcmurray,56.7268,-111.381,-18.23,78,100,3.09,CA,1704694582
465,agustin codazzi,10.0341,-73.2361,24.11,52,95,2.23,CO,1704694583
466,lionel town,17.8101,-77.2406,25.94,91,5,2.09,JM,1704694584
467,berezovo,63.9381,65.0419,-18.26,96,100,3.81,RU,1704694585
468,al khafji,28.4391,48.4913,15.01,43,0,4.17,SA,1704694585
469,gorontalo,0.5412,123.0595,30.04,74,81,0.55,ID,1704694586
470,trinidad,-14.8333,-64.9,24.09,89,70,1.49,BO,1704694587
471,choibalsan,48.0667,114.5,-12.89,88,27,2.36,MN,1704694587
472,hojai,26.0,92.8667,22.1,53,0,0.59,IN,1704694593
473,juruti,-2.1522,-56.0922,23.62,87,87,1.7,BR,1704694594
474,kuta,-8.7233,115.1723,28.97,88,40,3.6,ID,1704694594
475,lodwar,3.1191,35.5973,31.12,35,47,6.97,KE,1704694595
476,paraiso,9.8383,-83.8656,18.48,91,99,1.6,CR,1704694596
477,siwa oasis,29.2041,25.5195,10.1,38,6,2.27,EG,1704694596
478,gadzhiyevo,69.2551,33.3362,-4.69,78,100,9.33,RU,1704694597
479,al kharijah,25.4514,30.5464,16.99,34,2,2.78,EG,1704694598
480,takoradi,4.8845,-1.7554,26.99,85,24,2.04,GH,1704694541
481,ola,59.5833,151.2833,-33.81,91,11,2.46,RU,1704694600
482,taroa,8.7058,171.2275,27.17,72,95,8.23,MH,1704694601
483,canutama,-6.5339,-64.3831,23.53,97,96,0.81,BR,1704694602
484,andalgala,-27.5819,-66.3165,20.51,78,47,0.28,AR,1704694602
485,petrila,45.45,23.4167,3.31,97,100,1.13,RO,1704694603
486,bornu yassu,12.2774,12.5552,15.72,39,0,3.1,NG,1704694604
487,gereida,11.2811,25.1414,17.12,31,64,4.4,SD,1704694604
488,quellon,-43.1167,-73.6167,8.8,79,13,2.09,CL,1704694605
489,taoudenni,22.6783,-3.9836,18.37,35,0,3.7,ML,1704694606
490,morehead city,34.7229,-76.726,7.77,73,0,4.12,US,1704694444
491,vila velha,-20.3297,-40.2925,24.97,92,75,1.03,BR,1704694352
492,lengshuitan,26.4111,111.5956,9.93,91,100,1.47,CN,1704694608
493,santiago,-33.4569,-70.6483,20.75,54,0,3.09,CL,1704693966
494,wynyard,-41.0,145.7167,19.68,77,100,2.54,AU,1704694610
495,myeik,12.4333,98.6,30.76,48,100,1.54,MM,1704694610
496,guider,9.9342,13.9486,20.74,20,55,1.27,CM,1704694611
497,merizo village,13.2658,144.6691,29.43,84,70,7.17,GU,1704694612
498,curico,-34.9833,-71.2333,17.06,63,0,3.09,CL,1704694613
499,vilhena,-12.7406,-60.1458,20.78,98,92,1.27,BR,1704694613
500,bandarbeyla,9.4942,50.8122,25.88,55,2,10.38,SO,1704694614
501,bol'sherech'ye,56.0925,74.6272,-3.16,96,100,5.5,RU,1704694615
502,tralee,52.2704,-9.7026,1.14,93,20,4.63,IE,1704694615
503,alesund,62.4723,6.1549,3.08,81,75,5.14,NO,1704694459
504,kailua-kona,19.6406,-155.9956,24.98,84,0,3.6,US,1704694328
505,ontario,34.0633,-117.6509,9.12,47,0,3.09,US,1704694618
506,port saint john's,-31.6229,29.5448,20.96,89,100,1.21,ZA,1704694619
507,grand-bourg,15.8835,-61.3148,22.97,68,7,8.44,GP,1704694619
508,urengoy,65.9667,78.3667,-20.82,94,100,4.69,RU,1704694620
509,igarka,67.4667,86.5833,-26.1,96,99,5.5,RU,1704694621
510,faya-largeau,17.9257,19.1043,17.02,15,11,5.67,TD,1704694622
511,yeppoon,-23.1333,150.7333,29.88,72,100,4.92,AU,1704694623
512,przasnysz,53.0191,20.8803,-12.01,83,100,6.0,PL,1704694624
513,maragogi,-9.0122,-35.2225,24.2,88,5,2.86,BR,1704694624
514,egilsstadir,65.2653,-14.3948,4.65,92,99,6.41,IS,1704694625
515,laojunmiao,39.8333,97.7333,0.63,21,55,4.73,CN,1704694626
516,rawatbhata,24.9333,75.5833,19.87,60,76,2.11,IN,1704694626
517,markivka,49.5229,39.5705,-10.94,76,100,7.24,UA,1704694627
518,nandigama,16.7833,80.3,27.8,40,14,4.76,IN,1704694628
519,labytnangi,66.6572,66.4183,-23.88,97,68,1.31,RU,1704694629
520,kasongo-lunda,-6.4667,16.8167,21.56,88,100,0.66,CD,1704694629
521,lichuan,30.3,108.85,9.75,68,52,1.15,CN,1704694630
522,nouadhibou,20.931,-17.0347,16.99,63,7,3.6,MR,1704694631
523,mildura,-34.2,142.15,26.71,61,93,6.41,AU,1704694596
524,manado,1.487,124.8455,33.43,62,40,4.12,ID,1704694633
525,socorro,31.6546,-106.3033,3.92,62,75,11.83,US,1704694389
526,coahuayana de hidalgo,18.7,-103.6583,21.21,91,85,1.52,MX,1704694634
527,lincoln,40.8,-96.667,1.21,84,100,6.26,US,1704694635
528,corbie,49.9067,2.5068,-1.51,69,100,10.8,FR,1704694636
529,talara,-4.5772,-81.2719,23.84,79,100,5.62,PE,1704694636
530,kosti,13.1629,32.6635,23.87,26,12,3.26,SD,1704694637
531,banjarmasin,-3.3244,114.591,28.08,65,100,1.7,ID,1704694638
532,smithers,54.7804,-127.1743,-6.82,100,100,1.54,CA,1704694638
533,konakovo,56.7,36.7667,-20.49,86,36,2.4,RU,1704694639
534,sao vicente,-23.9631,-46.3919,28.1,26,7,0.77,BR,1704694640
535,fisterra,42.9049,-9.2629,2.08,62,100,2.13,ES,1704694640
536,inhambane,-23.865,35.3833,27.8,62,18,1.18,MZ,1704694641
537,bondo,3.8146,23.6866,21.43,37,45,1.69,CD,1704694642
538,sandnessjoen,66.0217,12.6316,3.06,81,75,2.57,NO,1704694643
539,alaghsas,17.0187,8.0168,14.94,25,0,2.57,NE,1704694369
540,mulayjah,27.271,48.4242,13.54,33,0,2.75,SA,1704694644
541,peniche,39.3558,-9.3811,7.38,64,97,3.05,PT,1704694645
542,vadso,70.0744,29.7487,-4.51,79,40,7.72,NO,1704694645
543,abu jibeha,11.4562,31.2285,23.04,25,22,2.1,SD,1704694646
544,padang,-0.9492,100.3543,31.03,79,88,1.85,ID,1704694647
545,ta`u,-14.2336,-169.5144,28.67,73,71,1.51,AS,1704694649
546,kidal,18.4411,1.4078,21.01,15,99,3.7,ML,1704694649
547,santiago de cao,-7.9589,-79.2392,21.07,88,100,2.57,PE,1704694650
548,forest grove,45.5198,-123.1107,5.93,90,75,0.0,US,1704694651
549,primero de mayo,-32.2552,-58.4228,21.42,96,34,2.72,AR,1704694651
550,kirakira,-10.4544,161.9205,28.64,80,44,2.64,SB,1704694652
551,abu zabad,12.35,29.25,19.09,32,36,5.58,SD,1704694653
552,fort st. john,56.2499,-120.8529,-22.06,77,0,0.0,CA,1704694654
553,mexico,15.0646,120.7198,30.64,58,86,6.29,PH,1704694114
554,onguday,50.75,86.15,-4.26,75,96,2.33,RU,1704694655
555,sanawad,22.1833,76.0667,27.5,40,20,3.36,IN,1704694656
556,caister-on-sea,52.6481,1.7265,3.88,64,75,9.19,GB,1704694656
557,colonia,50.9333,6.95,-0.64,81,75,3.09,DE,1704694443
558,shizuoka,34.9769,138.3831,8.61,32,0,1.17,JP,1704694409
559,bonito,-21.1211,-56.4819,25.14,68,1,2.1,BR,1704694658
560,tudor vladimirescu,45.5667,27.65,-3.43,85,100,13.19,RO,1704694659
561,ourem,39.6417,-8.5919,4.7,85,91,1.39,PT,1704694660
562,burang,30.25,81.1667,-1.69,12,0,2.04,CN,1704694528
563,nikol'sk,53.7189,46.0712,-24.83,100,48,2.2,RU,1704694661
564,elko,41.0002,-115.5012,-10.43,79,67,1.34,US,1704694662
565,amarpatan,24.3167,80.9833,21.28,62,35,2.05,IN,1704694662
566,valley city,46.9233,-98.0032,-16.71,100,100,3.09,US,1704694663
567,stornoway,58.2093,-6.3865,4.98,81,75,4.12,GB,1704694664
568,khunti,23.0833,85.2833,18.06,43,6,2.36,IN,1704694664
569,xilin hot,43.9667,116.0333,-10.01,75,99,1.81,CN,1704694665
570,bella union,-30.2752,-57.6007,20.98,97,99,2.5,UY,1704694666
571,posse,-14.0931,-46.3694,20.04,94,100,2.55,BR,1704694666
572,cuatro cienegas de carranza,26.9833,-102.0833,11.57,75,1,1.46,MX,1704694667
